[{"code":"L1A","title":"Дарница-Лыбидская","checkpoints":[{"location":{"lat":50.4351671,"lng":30.6260655},"title":"Каунасская, 10, Киев"},{"location":{"lat":50.4380049,"lng":30.621741},"title":"Регенераторная, 4а, Киев"},{"location":{"lat":50.4316292,"lng":30.6095111},"title":"проспект Павла Тычины, 15, Киев"},{"location":{"lat":50.4281957,"lng":30.5929748},"title":"проспект Павла Тычины, 1в, Киев"},{"location":{"lat":50.4229663,"lng":30.5536993},"title":"бульвар Дружбы Народов, 35, Киев"},{"location":{"lat":50.42303829999999,"lng":30.5446637},"title":"бульва Леси Украинки, 25, Киев"},{"location":{"lat":50.426553,"lng":30.54012},"title":"ст. м. Печерская, Киев"},{"location":{"lat":50.4276237,"lng":30.5294081},"title":"Евгения Коновальца, 25, Киев"},{"location":{"lat":50.420554,"lng":30.520936},"title":"ст. м. Палац Украина, Киев"},{"location":{"lat":50.41403769999999,"lng":30.521477},"title":"Антоновича, 172, Киев"},{"location":{"lat":50.4122949,"lng":30.5262061},"title":"ст. м. Лыбедская, Киев"}]}]